{
	"type": "FeatureCollection",
	"features": [
		{
			"type": "Feature",
			"geometry": {
				"type": "Point",
				"coordinates": [-73.664775, 45.5542953]
			},
			"properties": {
				"address": " 10555, rue Lajeunesse",
				"name": "Aire de glissade, Ahuntsic",
				"has_data": true
			}
		},
		{
			"type": "Feature",
			"geometry": {
				"type": "Point",
				"coordinates": [-73.6452226, 45.5782082]
			},
			"properties": {
				"address": " 2574, rue Fleury Est",
				"name": "Aire de glissade, Des Hirondelles",
				"has_data": true
			}
		},
		{
			"type": "Feature",
			"geometry": {
				"type": "Point",
				"coordinates": [-73.6925455, 45.4419026]
			},
			"properties": {
				"address": " 32e avenue and rue Provost",
				"name": "Parc Groverhill"
			}
		},
		{
			"type": "Feature",
			"geometry": {
				"type": "Point",
				"coordinates": [-73.6357811, 45.4331612]
			},
			"properties": {
				"address": " 8600, rue Hardy",
				"name": "Parc Lefebvre"
			}
		},
		{
			"type": "Feature",
			"geometry": {
				"type": "Point",
				"coordinates": [-73.6001332, 45.4273483]
			},
			"properties": {
				"address": " 555, boulevard Bishop-Power",
				"name": "Parc Raymond"
			}
		},
		{
			"type": "Feature",
			"geometry": {
				"type": "Point",
				"coordinates": [-73.6028371, 45.455595]
			},
			"properties": {
				"address": " 3333, avenue Newman",
				"name": "Aire de glissade, Ignace-Bourget",
				"has_data": true
			}
		},
		{
			"type": "Feature",
			"geometry": {
				"type": "Point",
				"coordinates": [-73.5557035, 45.4777729]
			},
			"properties": {
				"address": " 470, rue Fortune",
				"name": "Aire de glissade, Le Ber",
				"has_data": true
			}
		},
		{
			"type": "Feature",
			"geometry": {
				"type": "Point",
				"coordinates": [-73.5648865, 45.5809892]
			},
			"properties": {
				"address": " rue Cabrini au nord du boulevard Rosemont",
				"name": "Aire de glissade, Francesca-Cabrini",
				"has_data": true
			}
		},
		{
			"type": "Feature",
			"geometry": {
				"type": "Point",
				"coordinates": [-73.5180556, 45.5944171]
			},
			"properties": {
				"address": " 2150, rue Liébert",
				"name": "Aire de glissade, De la Bruère",
				"has_data": true
			}
		},
		{
			"type": "Feature",
			"geometry": {
				"type": "Point",
				"coordinates": [-73.5429946, 45.5679099]
			},
			"properties": {
				"address": " 850, avenue Pierre-De Coubertin ",
				"name": "Aire de glissade, Liébert",
				"has_data": true
			}
		},
		{
			"type": "Feature",
			"geometry": {
				"type": "Point",
				"coordinates": [-73.5339043, 45.5511067]
			},
			"properties": {
				"address": " 4370, rue Sainte-Catherine Est ",
				"name": "Aire de glissade, Morgan",
				"has_data": true
			}
		},
		{
			"type": "Feature",
			"geometry": {
				"type": "Point",
				"coordinates": [-73.64208390000002, 45.5922828]
			},
			"properties": {
				"address": " 11135, avenue des Récollets ",
				"name": "Parc Pilon"
			}
		},
		{
			"type": "Feature",
			"geometry": {
				"type": "Point",
				"coordinates": [-73.6089367, 45.5146841]
			},
			"properties": {
				"address": " chemin de la Côte-Sainte-Catherine and avenue McEachran",
				"name": "Glissade, Parc Beaubien"
			}
		},
		{
			"type": "Feature",
			"geometry": {
				"type": "Point",
				"coordinates": [-73.8557692, 45.47488509999999]
			},
			"properties": {
				"address": " 14899, rue Oakwood",
				"name": "Parc Alexander"
			}
		},
		{
			"type": "Feature",
			"geometry": {
				"type": "Point",
				"coordinates": [-73.8843486, 45.4584215]
			},
			"properties": {
				"address": " 17760, rue Meloche",
				"name": "Parc Grier"
			}
		},
		{
			"type": "Feature",
			"geometry": {
				"type": "Point",
				"coordinates": [-72.5166169, 46.3609458]
			},
			"properties": {
				"address": " 1050, boulevard Saint-Jean-Baptiste, PAT",
				"name": "Parc Saint-Jean-Baptiste"
			}
		},
		{
			"type": "Feature",
			"geometry": {
				"type": "Point",
				"coordinates": [-73.5701285, 45.5735949]
			},
			"properties": {
				"address": " 6525, rue Beaubien and 41e Avenue ",
				"name": "Aire de glissade, Joseph-Paré",
				"has_data": true
			}
		},
		{
			"type": "Feature",
			"geometry": {
				"type": "Point",
				"coordinates": [-73.5765828, 45.5453011]
			},
			"properties": {
				"address": " 2590, rue Masson and 1re Avenue ",
				"name": "Aire de glissade, Du Pélican",
				"has_data": true
			}
		},
		{
			"type": "Feature",
			"geometry": {
				"type": "Point",
				"coordinates": [-73.6901221, 45.5160456]
			},
			"properties": {
				"address": " 1505, rue Cardinal",
				"name": "Parc Hartenstein"
			}
		},
		{
			"type": "Feature",
			"geometry": {
				"type": "Point",
				"coordinates": [-73.6089045, 45.5834132]
			},
			"properties": {
				"address": " 4755, rue Valéry",
				"name": "Aire de glissade, parc Coubertin",
				"has_data": true
			}
		},
		{
			"type": "Feature",
			"geometry": {
				"type": "Point",
				"coordinates": [-73.5909368, 45.5932872]
			},
			"properties": {
				"address": " 6060, rue Honfleur",
				"name": "Aire de glissade, parc Delorme",
				"has_data": true
			}
		},
		{
			"type": "Feature",
			"geometry": {
				"type": "Point",
				"coordinates": [-73.5701127, 45.5863172]
			},
			"properties": {
				"address": "7125, rue Liénard, Montreal",
				"name": "Aire de glissade, parc Garibaldi",
				"has_data": true
			}
		},
		{
			"type": "Feature",
			"geometry": {
				"type": "Point",
				"coordinates": [-73.5991287, 45.4981655]
			},
			"properties": {
				"address": " 2000, chemin Remembrance ",
				"name": "Aire de glissade, Mont-Royal",
				"has_data": true
			}
		},
		{
			"type": "Feature",
			"geometry": {
				"type": "Point",
				"coordinates": [-73.5341937, 45.5189876]
			},
			"properties": {
				"address": " île Sainte-Hélène ",
				"name": "Parc Jean Drapeau"
			}
		},
		{
			"type": "Feature",
			"geometry": {
				"type": "Point",
				"coordinates": [-73.5009613, 45.6811101]
			},
			"properties": {
				"address": " 14905, rue Sherbrooke Est , 514 280-6691",
				"name": "Parc-nature de la Pointe-aux-prairies"
			}
		},
		{
			"type": "Feature",
			"geometry": {
				"type": "Point",
				"coordinates": [-73.7677118, 45.4994352]
			},
			"properties": {
				"address": "3555, rue Douglas-B.-Floreani",
				"name": "Parc-nature du Bois-de-Liesse accueil des champs"
			}
		},
		{
			"type": "Feature",
			"geometry": {
				"type": "Point",
				"coordinates": [-74.51912759999999, 46.17819919999999]
			},
			"properties": {
				"address": " 2938, chemin Lake",
				"name": "Parc du Centenaire"
			}
		},
		{
			"type": "Feature",
			"geometry": {
				"type": "Point",
				"coordinates": [-98.19913880000001, 37.9698429]
			},
			"properties": {
				"address": " 531, avenue Westminster",
				"name": "Parc Westminster"
			}
		}
	]
}
