[
    {
        "address": "3400, boulevard des Trinitaires", 
        "latitude": 45.4445195, 
        "longitude": -73.60173200000001, 
        "name": "Sentier de ski de randonnée, Angrignon"
    }, 
    {
        "address": "rue D'Iberville and rue de Louvain", 
        "latitude": 45.5694585, 
        "longitude": -73.6336094, 
        "name": "Sentier de ski de randonnée, Comp env Saint-Michel"
    }, 
    {
        "address": "boulevard Gouin Ouest and boulevard de l'Acadie", 
        "latitude": 45.5434683, 
        "longitude": -73.7030331, 
        "name": "Sentier de ski de randonnée, De la Merci"
    }, 
    {
        "address": "Parc des Hirondelles", 
        "latitude": 45.5755015, 
        "longitude": -73.6425452, 
        "name": "Sentier de ski alpin, Des Hirondelles"
    }, 
    {
        "address": "4601, rue Sherbrooke Est", 
        "latitude": 45.561006, 
        "longitude": -73.5547333, 
        "name": "Sentier de ski de randonnée, Maisonneuve"
    }, 
    {
        "address": "Parc du Mont-Royal", 
        "latitude": 45.5053184, 
        "longitude": -73.5891765, 
        "name": "Sentier de ski de randonnée, Mont-Royal"
    }, 
    {
        "address": "Parc Adrien-D-Archambault, Montreal, QC", 
        "latitude": 45.4561402, 
        "longitude": -73.55788969999999, 
        "name": "Sentier de ski de fond, Parc Adrien-D. Archambault"
    }, 
    {
        "address": "Parc Arthur-Therrien, Montreal, QC", 
        "latitude": 45.5086699, 
        "longitude": -73.55399249999999, 
        "name": "Sentier de ski de fond, Parc Arthur-Therrien"
    }, 
    {
        "address": "Rue Masson and Rue d'Iberville, Montreal, QC", 
        "latitude": 45.5431467, 
        "longitude": -73.5784304, 
        "name": "Sentier de ski de randonnée CP, Rosemont"
    }
]